{
  "features": [
    {
      "geometry": {
        "coordinates": [
          12.578359386021,
          55.714869057207
        ],
        "type": "Point"
      },
      "properties": {
        "isStopPoint": true,
        "plannedArrivalDateTime": "2016-02-05T16:06+01:00",
        "plannedDepartureDateTime": "2016-02-05T16:06+01:00",
        "sequenceNumber": 1,
        "stopPointName": "Svanemøllen St., Sløjfen (29848)"
      },
      "type": "Feature"
    },
    {
      "geometry": {
        "coordinates": [
          12.576872278272,
          55.714722338697
        ],
        "type": "Point"
      },
      "properties": {
        "isStopPoint": true,
        "plannedArrivalDateTime": "2016-02-05T16:06+01:00",
        "plannedDepartureDateTime": "2016-02-05T16:06+01:00",
        "sequenceNumber": 2,
        "stopPointName": "Østerbrogade (1254)"
      },
      "type": "Feature"
    },
    {
      "geometry": {
        "coordinates": [
          12.574430966245,
          55.714583115517
        ],
        "type": "Point"
      },
      "properties": {
        "isStopPoint": false,
        "plannedArrivalDateTime": "2016-02-05T16:07+01:00",
        "plannedDepartureDateTime": "2016-02-05T16:07+01:00",
        "sequenceNumber": 3,
        "stopPointName": "Via (27025)"
      },
      "type": "Feature"
    },
    {
      "geometry": {
        "coordinates": [
          12.572141671488,
          55.714302955207
        ],
        "type": "Point"
      },
      "properties": {
        "isStopPoint": true,
        "plannedArrivalDateTime": "2016-02-05T16:07+01:00",
        "plannedDepartureDateTime": "2016-02-05T16:07+01:00",
        "sequenceNumber": 4,
        "stopPointName": "Thomas Laubs Gade (1255)"
      },
      "type": "Feature"
    },
    {
      "geometry": {
        "coordinates": [
          12.568710142387,
          55.713719363382
        ],
        "type": "Point"
      },
      "properties": {
        "isStopPoint": true,
        "plannedArrivalDateTime": "2016-02-05T16:08+01:00",
        "plannedDepartureDateTime": "2016-02-05T16:08+01:00",
        "sequenceNumber": 5,
        "stopPointName": "Kildevældsparken (10115)"
      },
      "type": "Feature"
    },
    {
      "geometry": {
        "coordinates": [
          12.569281182613,
          55.711635454779
        ],
        "type": "Point"
      },
      "properties": {
        "isStopPoint": true,
        "plannedArrivalDateTime": "2016-02-05T16:09+01:00",
        "plannedDepartureDateTime": "2016-02-05T16:09+01:00",
        "sequenceNumber": 6,
        "stopPointName": "Nygårdsvej (10116)"
      },
      "type": "Feature"
    },
    {
      "geometry": {
        "coordinates": [
          12.565725227746,
          55.71066557608
        ],
        "type": "Point"
      },
      "properties": {
        "isStopPoint": true,
        "plannedArrivalDateTime": "2016-02-05T16:10+01:00",
        "plannedDepartureDateTime": "2016-02-05T16:10+01:00",
        "sequenceNumber": 7,
        "stopPointName": "Skt. Kjelds Plads (1258)"
      },
      "type": "Feature"
    },
    {
      "geometry": {
        "coordinates": [
          12.564818123892,
          55.71088365025
        ],
        "type": "Point"
      },
      "properties": {
        "isStopPoint": false,
        "plannedArrivalDateTime": "2016-02-05T16:10+01:00",
        "plannedDepartureDateTime": "2016-02-05T16:10+01:00",
        "sequenceNumber": 8,
        "stopPointName": "Via (26727)"
      },
      "type": "Feature"
    },
    {
      "geometry": {
        "coordinates": [
          12.560458136843,
          55.709816113446
        ],
        "type": "Point"
      },
      "properties": {
        "isStopPoint": true,
        "plannedArrivalDateTime": "2016-02-05T16:12+01:00",
        "plannedDepartureDateTime": "2016-02-05T16:12+01:00",
        "sequenceNumber": 9,
        "stopPointName": "Lyngbyvej (1260)"
      },
      "type": "Feature"
    },
    {
      "geometry": {
        "coordinates": [
          12.557321352504,
          55.708289577954
        ],
        "type": "Point"
      },
      "properties": {
        "isStopPoint": true,
        "plannedArrivalDateTime": "2016-02-05T16:13+01:00",
        "plannedDepartureDateTime": "2016-02-05T16:13+01:00",
        "sequenceNumber": 10,
        "stopPointName": "Lersø Park Allé (1261)"
      },
      "type": "Feature"
    },
    {
      "geometry": {
        "coordinates": [
          12.554200459762,
          55.706560501424
        ],
        "type": "Point"
      },
      "properties": {
        "isStopPoint": true,
        "plannedArrivalDateTime": "2016-02-05T16:14+01:00",
        "plannedDepartureDateTime": "2016-02-05T16:14+01:00",
        "sequenceNumber": 11,
        "stopPointName": "Aldersrogade (1262)"
      },
      "type": "Feature"
    },
    {
      "geometry": {
        "coordinates": [
          12.549793419465,
          55.708309312746
        ],
        "type": "Point"
      },
      "properties": {
        "isStopPoint": false,
        "plannedArrivalDateTime": "2016-02-05T16:16+01:00",
        "plannedDepartureDateTime": "2016-02-05T16:16+01:00",
        "sequenceNumber": 12,
        "stopPointName": "Via (47794)"
      },
      "type": "Feature"
    },
    {
      "geometry": {
        "coordinates": [
          12.54459525295,
          55.705090988181
        ],
        "type": "Point"
      },
      "properties": {
        "isStopPoint": true,
        "plannedArrivalDateTime": "2016-02-05T16:18+01:00",
        "plannedDepartureDateTime": "2016-02-05T16:18+01:00",
        "sequenceNumber": 13,
        "stopPointName": "Rovsingsgade (7035)"
      },
      "type": "Feature"
    },
    {
      "geometry": {
        "coordinates": [
          12.54213863801,
          55.706458817066
        ],
        "type": "Point"
      },
      "properties": {
        "isStopPoint": true,
        "plannedArrivalDateTime": "2016-02-05T16:19+01:00",
        "plannedDepartureDateTime": "2016-02-05T16:19+01:00",
        "sequenceNumber": 14,
        "stopPointName": "Bispebjerg St. (2757)"
      },
      "type": "Feature"
    },
    {
      "geometry": {
        "coordinates": [
          12.537988693861,
          55.704325254604
        ],
        "type": "Point"
      },
      "properties": {
        "isStopPoint": true,
        "plannedArrivalDateTime": "2016-02-05T16:23+01:00",
        "plannedDepartureDateTime": "2016-02-05T16:23+01:00",
        "sequenceNumber": 15,
        "stopPointName": "Nørrebro Bycenter (10017)"
      },
      "type": "Feature"
    },
    {
      "geometry": {
        "coordinates": [
          12.537094394927,
          55.700685533354
        ],
        "type": "Point"
      },
      "properties": {
        "isStopPoint": true,
        "plannedArrivalDateTime": "2016-02-05T16:25+01:00",
        "plannedDepartureDateTime": "2016-02-05T16:25+01:00",
        "sequenceNumber": 16,
        "stopPointName": "Nørrebro St. (1989)"
      },
      "type": "Feature"
    },
    {
      "geometry": {
        "coordinates": [
          12.535446295653,
          55.696323268732
        ],
        "type": "Point"
      },
      "properties": {
        "isStopPoint": true,
        "plannedArrivalDateTime": "2016-02-05T16:27+01:00",
        "plannedDepartureDateTime": "2016-02-05T16:27+01:00",
        "sequenceNumber": 17,
        "stopPointName": "Hillerødgade (1990)"
      },
      "type": "Feature"
    },
    {
      "geometry": {
        "coordinates": [
          12.533410953922,
          55.694101653325
        ],
        "type": "Point"
      },
      "properties": {
        "isStopPoint": true,
        "plannedArrivalDateTime": "2016-02-05T16:28+01:00",
        "plannedDepartureDateTime": "2016-02-05T16:28+01:00",
        "sequenceNumber": 18,
        "stopPointName": "Borups Allé (1268)"
      },
      "type": "Feature"
    },
    {
      "geometry": {
        "coordinates": [
          12.53064006538,
          55.691150050457
        ],
        "type": "Point"
      },
      "properties": {
        "isStopPoint": true,
        "plannedArrivalDateTime": "2016-02-05T16:30+01:00",
        "plannedDepartureDateTime": "2016-02-05T16:30+01:00",
        "sequenceNumber": 19,
        "stopPointName": "Mariendalsvej (1269)"
      },
      "type": "Feature"
    },
    {
      "geometry": {
        "coordinates": [
          12.527096416449,
          55.687396150944
        ],
        "type": "Point"
      },
      "properties": {
        "isStopPoint": true,
        "plannedArrivalDateTime": "2016-02-05T16:32+01:00",
        "plannedDepartureDateTime": "2016-02-05T16:32+01:00",
        "sequenceNumber": 20,
        "stopPointName": "Godthåbsvej (1270)"
      },
      "type": "Feature"
    },
    {
      "geometry": {
        "coordinates": [
          12.525103288211,
          55.684805917195
        ],
        "type": "Point"
      },
      "properties": {
        "isStopPoint": true,
        "plannedArrivalDateTime": "2016-02-05T16:34+01:00",
        "plannedDepartureDateTime": "2016-02-05T16:34+01:00",
        "sequenceNumber": 21,
        "stopPointName": "Nyelandsvej (1272)"
      },
      "type": "Feature"
    },
    {
      "geometry": {
        "coordinates": [
          12.522605601311,
          55.681618680385
        ],
        "type": "Point"
      },
      "properties": {
        "isStopPoint": true,
        "plannedArrivalDateTime": "2016-02-05T16:36+01:00",
        "plannedDepartureDateTime": "2016-02-05T16:36+01:00",
        "sequenceNumber": 22,
        "stopPointName": "Fasanvej St. (1273)"
      },
      "type": "Feature"
    },
    {
      "geometry": {
        "coordinates": [
          12.521192647173,
          55.678856146206
        ],
        "type": "Point"
      },
      "properties": {
        "isStopPoint": true,
        "plannedArrivalDateTime": "2016-02-05T16:37+01:00",
        "plannedDepartureDateTime": "2016-02-05T16:37+01:00",
        "sequenceNumber": 23,
        "stopPointName": "Peter Bangs Vej (1274)"
      },
      "type": "Feature"
    },
    {
      "geometry": {
        "coordinates": [
          12.519993853741,
          55.676078913703
        ],
        "type": "Point"
      },
      "properties": {
        "isStopPoint": true,
        "plannedArrivalDateTime": "2016-02-05T16:38+01:00",
        "plannedDepartureDateTime": "2016-02-05T16:38+01:00",
        "sequenceNumber": 24,
        "stopPointName": "Mathildevej (1275)"
      },
      "type": "Feature"
    },
    {
      "geometry": {
        "coordinates": [
          12.517967910585,
          55.671540958434
        ],
        "type": "Point"
      },
      "properties": {
        "isStopPoint": true,
        "plannedArrivalDateTime": "2016-02-05T16:41+01:00",
        "plannedDepartureDateTime": "2016-02-05T16:41+01:00",
        "sequenceNumber": 25,
        "stopPointName": "Roskildevej (1276)"
      },
      "type": "Feature"
    },
    {
      "geometry": {
        "coordinates": [
          12.5171719248,
          55.668419611954
        ],
        "type": "Point"
      },
      "properties": {
        "isStopPoint": true,
        "plannedArrivalDateTime": "2016-02-05T16:42+01:00",
        "plannedDepartureDateTime": "2016-02-05T16:42+01:00",
        "sequenceNumber": 26,
        "stopPointName": "Aurikelvej (1277)"
      },
      "type": "Feature"
    },
    {
      "geometry": {
        "coordinates": [
          12.517255931928,
          55.666338163902
        ],
        "type": "Point"
      },
      "properties": {
        "isStopPoint": true,
        "plannedArrivalDateTime": "2016-02-05T16:44+01:00",
        "plannedDepartureDateTime": "2016-02-05T16:44+01:00",
        "sequenceNumber": 27,
        "stopPointName": "Valby Langgade (1102)"
      },
      "type": "Feature"
    },
    {
      "geometry": {
        "coordinates": [
          12.516257971415,
          55.66358919429
        ],
        "type": "Point"
      },
      "properties": {
        "isStopPoint": true,
        "plannedArrivalDateTime": "2016-02-05T16:45+01:00",
        "plannedDepartureDateTime": "2016-02-05T16:45+01:00",
        "sequenceNumber": 28,
        "stopPointName": "Valby St. (10427)"
      },
      "type": "Feature"
    },
    {
      "geometry": {
        "coordinates": [
          12.51854294,
          55.661631442821
        ],
        "type": "Point"
      },
      "properties": {
        "isStopPoint": true,
        "plannedArrivalDateTime": "2016-02-05T16:47+01:00",
        "plannedDepartureDateTime": "2016-02-05T16:47+01:00",
        "sequenceNumber": 29,
        "stopPointName": "Toftegårds Plads (1183)"
      },
      "type": "Feature"
    },
    {
      "geometry": {
        "coordinates": [
          12.524595016759,
          55.662017449514
        ],
        "type": "Point"
      },
      "properties": {
        "isStopPoint": true,
        "plannedArrivalDateTime": "2016-02-05T16:48+01:00",
        "plannedDepartureDateTime": "2016-02-05T16:48+01:00",
        "sequenceNumber": 30,
        "stopPointName": "Vestre Kirkegård Nord (2673)"
      },
      "type": "Feature"
    },
    {
      "geometry": {
        "coordinates": [
          12.52633258858,
          55.65598233983
        ],
        "type": "Point"
      },
      "properties": {
        "isStopPoint": true,
        "plannedArrivalDateTime": "2016-02-05T16:49+01:00",
        "plannedDepartureDateTime": "2016-02-05T16:49+01:00",
        "sequenceNumber": 31,
        "stopPointName": "Sankt Annæ Gymnasium (2675)"
      },
      "type": "Feature"
    },
    {
      "geometry": {
        "coordinates": [
          12.527558302374,
          55.651710568111
        ],
        "type": "Point"
      },
      "properties": {
        "isStopPoint": true,
        "plannedArrivalDateTime": "2016-02-05T16:51+01:00",
        "plannedDepartureDateTime": "2016-02-05T16:51+01:00",
        "sequenceNumber": 32,
        "stopPointName": "Sjælør St. (1188)"
      },
      "type": "Feature"
    },
    {
      "geometry": {
        "coordinates": [
          12.534114931495,
          55.649162017936
        ],
        "type": "Point"
      },
      "properties": {
        "isStopPoint": true,
        "plannedArrivalDateTime": "2016-02-05T16:52+01:00",
        "plannedDepartureDateTime": "2016-02-05T16:52+01:00",
        "sequenceNumber": 33,
        "stopPointName": "Mozarts Plads (1190)"
      },
      "type": "Feature"
    },
    {
      "geometry": {
        "coordinates": [
          12.538595200488,
          55.647532210036
        ],
        "type": "Point"
      },
      "properties": {
        "isStopPoint": false,
        "plannedArrivalDateTime": "2016-02-05T16:53+01:00",
        "plannedDepartureDateTime": "2016-02-05T16:53+01:00",
        "sequenceNumber": 34,
        "stopPointName": "Via (26763)"
      },
      "type": "Feature"
    },
    {
      "geometry": {
        "coordinates": [
          12.542792232423,
          55.645678548444
        ],
        "type": "Point"
      },
      "properties": {
        "isStopPoint": true,
        "plannedArrivalDateTime": "2016-02-05T16:54+01:00",
        "plannedDepartureDateTime": "2016-02-05T16:54+01:00",
        "sequenceNumber": 35,
        "stopPointName": "Bådehavnsgade (1192)"
      },
      "type": "Feature"
    },
    {
      "geometry": {
        "coordinates": [
          12.546030999823,
          55.643267078734
        ],
        "type": "Point"
      },
      "properties": {
        "isStopPoint": true,
        "plannedArrivalDateTime": "2016-02-05T16:55+01:00",
        "plannedDepartureDateTime": "2016-02-05T16:55+01:00",
        "sequenceNumber": 36,
        "stopPointName": "Sluseholmen (1193)"
      },
      "type": "Feature"
    },
    {
      "geometry": {
        "coordinates": [
          12.564682839365,
          55.641447475301
        ],
        "type": "Point"
      },
      "properties": {
        "isStopPoint": true,
        "plannedArrivalDateTime": "2016-02-05T16:58+01:00",
        "plannedDepartureDateTime": "2016-02-05T16:58+01:00",
        "sequenceNumber": 37,
        "stopPointName": "Artillerivej (2666)"
      },
      "type": "Feature"
    },
    {
      "geometry": {
        "coordinates": [
          12.57637477023,
          55.639507376029
        ],
        "type": "Point"
      },
      "properties": {
        "isStopPoint": true,
        "plannedArrivalDateTime": "2016-02-05T17:01+01:00",
        "plannedDepartureDateTime": "2016-02-05T17:01+01:00",
        "sequenceNumber": 38,
        "stopPointName": "Bella Center, Indgang Vest (27999)"
      },
      "type": "Feature"
    },
    {
      "geometry": {
        "coordinates": [
          12.581993630004,
          55.638781823167
        ],
        "type": "Point"
      },
      "properties": {
        "isStopPoint": true,
        "plannedArrivalDateTime": "2016-02-05T17:02+01:00",
        "plannedDepartureDateTime": "2016-02-05T17:02+01:00",
        "sequenceNumber": 39,
        "stopPointName": "Bella Center St. (28006)"
      },
      "type": "Feature"
    },
    {
      "geometry": {
        "coordinates": [
          12.586417599068,
          55.641271049183
        ],
        "type": "Point"
      },
      "properties": {
        "isStopPoint": true,
        "plannedArrivalDateTime": "2016-02-05T17:03+01:00",
        "plannedDepartureDateTime": "2016-02-05T17:03+01:00",
        "sequenceNumber": 40,
        "stopPointName": "Digevej (28008)"
      },
      "type": "Feature"
    },
    {
      "geometry": {
        "coordinates": [
          12.59215103435,
          55.642438697521
        ],
        "type": "Point"
      },
      "properties": {
        "isStopPoint": true,
        "plannedArrivalDateTime": "2016-02-05T17:04+01:00",
        "plannedDepartureDateTime": "2016-02-05T17:04+01:00",
        "sequenceNumber": 41,
        "stopPointName": "Røde Mellemvej (109)"
      },
      "type": "Feature"
    },
    {
      "geometry": {
        "coordinates": [
          12.599631960847,
          55.642546146035
        ],
        "type": "Point"
      },
      "properties": {
        "isStopPoint": true,
        "plannedArrivalDateTime": "2016-02-05T17:05+01:00",
        "plannedDepartureDateTime": "2016-02-05T17:05+01:00",
        "sequenceNumber": 42,
        "stopPointName": "Englandsvej (1194)"
      },
      "type": "Feature"
    },
    {
      "geometry": {
        "coordinates": [
          12.607431193927,
          55.642931866401
        ],
        "type": "Point"
      },
      "properties": {
        "isStopPoint": true,
        "plannedArrivalDateTime": "2016-02-05T17:06+01:00",
        "plannedDepartureDateTime": "2016-02-05T17:06+01:00",
        "sequenceNumber": 43,
        "stopPointName": "Irlandsvej (1195)"
      },
      "type": "Feature"
    },
    {
      "geometry": {
        "coordinates": [
          12.61531699492,
          55.644216622237
        ],
        "type": "Point"
      },
      "properties": {
        "isStopPoint": true,
        "plannedArrivalDateTime": "2016-02-05T17:08+01:00",
        "plannedDepartureDateTime": "2016-02-05T17:08+01:00",
        "sequenceNumber": 44,
        "stopPointName": "Vejlands Allé (795)"
      },
      "type": "Feature"
    },
    {
      "geometry": {
        "coordinates": [
          12.614473728384,
          55.646010484886
        ],
        "type": "Point"
      },
      "properties": {
        "isStopPoint": true,
        "plannedArrivalDateTime": "2016-02-05T17:09+01:00",
        "plannedDepartureDateTime": "2016-02-05T17:09+01:00",
        "sequenceNumber": 45,
        "stopPointName": "Sundbyvester Plads (42515)"
      },
      "type": "Feature"
    },
    {
      "geometry": {
        "coordinates": [
          12.62341298514,
          55.647099101991
        ],
        "type": "Point"
      },
      "properties": {
        "isStopPoint": true,
        "plannedArrivalDateTime": "2016-02-05T17:10+01:00",
        "plannedDepartureDateTime": "2016-02-05T17:10+01:00",
        "sequenceNumber": 46,
        "stopPointName": "Wibrandtsvej (50566)"
      },
      "type": "Feature"
    },
    {
      "geometry": {
        "coordinates": [
          12.620619438597,
          55.651174180313
        ],
        "type": "Point"
      },
      "properties": {
        "isStopPoint": true,
        "plannedArrivalDateTime": "2016-02-05T17:12+01:00",
        "plannedDepartureDateTime": "2016-02-05T17:12+01:00",
        "sequenceNumber": 47,
        "stopPointName": "Persiensvej (1607)"
      },
      "type": "Feature"
    },
    {
      "geometry": {
        "coordinates": [
          12.619087516891,
          55.653867211946
        ],
        "type": "Point"
      },
      "properties": {
        "isStopPoint": true,
        "plannedArrivalDateTime": "2016-02-05T17:13+01:00",
        "plannedDepartureDateTime": "2016-02-05T17:13+01:00",
        "sequenceNumber": 48,
        "stopPointName": "Amager Hospital (1608)"
      },
      "type": "Feature"
    },
    {
      "geometry": {
        "coordinates": [
          12.616595024313,
          55.656671640359
        ],
        "type": "Point"
      },
      "properties": {
        "isStopPoint": true,
        "plannedArrivalDateTime": "2016-02-05T17:14+01:00",
        "plannedDepartureDateTime": "2016-02-05T17:14+01:00",
        "sequenceNumber": 49,
        "stopPointName": "Sundby Kirkegård (1609)"
      },
      "type": "Feature"
    },
    {
      "geometry": {
        "coordinates": [
          12.616782485767,
          55.661403795404
        ],
        "type": "Point"
      },
      "properties": {
        "isStopPoint": true,
        "plannedArrivalDateTime": "2016-02-05T17:16+01:00",
        "plannedDepartureDateTime": "2016-02-05T17:16+01:00",
        "sequenceNumber": 50,
        "stopPointName": "Lergravsparken St., Sløjfen (48751)"
      },
      "type": "Feature"
    }
  ],
  "type": "FeatureCollection"
}